{"City": "Waterloo", "Address Description": "7 mi N, 2 mi E of Waterloo, intersection  Bennington/Sage Rd", "County": "Black Hawk", "Address": "  Bennington Rd ", "geo": [{"geometry": {"bounds": {"northeast": {"lat": 42.5995924, "lng": -92.33267470000001}, "southwest": {"lat": 42.5995788, "lng": -92.33267470000001}}, "location": {"lat": 42.5995788, "lng": -92.33267470000001}, "viewport": {"northeast": {"lat": 42.60093458029149, "lng": -92.33132571970852}, "southwest": {"lat": 42.59823661970849, "lng": -92.33402368029152}}, "location_type": "RANGE_INTERPOLATED"}, "address_components": [{"long_name": "4", "types": ["street_number"], "short_name": "4"}, {"long_name": "East Bennington Road", "types": ["route"], "short_name": "E Bennington Rd"}, {"long_name": "Waterloo", "types": ["locality", "political"], "short_name": "Waterloo"}, {"long_name": "Mount Vernon", "types": ["administrative_area_level_3", "political"], "short_name": "Mt Vernon"}, {"long_name": "Black Hawk", "types": ["administrative_area_level_2", "political"], "short_name": "Black Hawk"}, {"long_name": "Iowa", "types": ["administrative_area_level_1", "political"], "short_name": "IA"}, {"long_name": "United States", "types": ["country", "political"], "short_name": "US"}, {"long_name": "50703", "types": ["postal_code"], "short_name": "50703"}], "partial_match": true, "formatted_address": "4 East Bennington Road, Waterloo, IA 50703, USA", "types": ["street_address"]}, {"geometry": {"bounds": {"northeast": {"lat": 42.5996291, "lng": -92.3382383}, "southwest": {"lat": 42.5996156, "lng": -92.3382385}}, "location": {"lat": 42.5996156, "lng": -92.3382385}, "viewport": {"northeast": {"lat": 42.6009713302915, "lng": -92.3368894197085}, "southwest": {"lat": 42.5982733697085, "lng": -92.3395873802915}}, "location_type": "RANGE_INTERPOLATED"}, "address_components": [{"long_name": "4", "types": ["street_number"], "short_name": "4"}, {"long_name": "West Bennington Road", "types": ["route"], "short_name": "W Bennington Rd"}, {"long_name": "Waterloo", "types": ["locality", "political"], "short_name": "Waterloo"}, {"long_name": "Mount Vernon", "types": ["administrative_area_level_3", "political"], "short_name": "Mt Vernon"}, {"long_name": "Black Hawk", "types": ["administrative_area_level_2", "political"], "short_name": "Black Hawk"}, {"long_name": "Iowa", "types": ["administrative_area_level_1", "political"], "short_name": "IA"}, {"long_name": "United States", "types": ["country", "political"], "short_name": "US"}, {"long_name": "50703", "types": ["postal_code"], "short_name": "50703"}], "partial_match": true, "formatted_address": "4 West Bennington Road, Waterloo, IA 50703, USA", "types": ["street_address"]}], "Property Name": "Bennington #4", "Listed Date": "16-Jan-01"}