{"City": "Bloomfield", "Address Description": "", "County": "Davis", "Address": "", "geo": [{"geometry": {"bounds": {"northeast": {"lat": 40.7496281, "lng": -92.4205269}, "southwest": {"lat": 40.7476606, "lng": -92.4205621}}, "location": {"lat": 40.7486314, "lng": -92.42054949999999}, "viewport": {"northeast": {"lat": 40.7499933302915, "lng": -92.4191955197085}, "southwest": {"lat": 40.7472953697085, "lng": -92.42189348029152}}, "location_type": "GEOMETRIC_CENTER"}, "address_components": [{"long_name": "Bloomfield Avenue", "types": ["route"], "short_name": "Bloomfield Ave"}, {"long_name": "Bloomfield", "types": ["locality", "political"], "short_name": "Bloomfield"}, {"long_name": "Davis", "types": ["administrative_area_level_2", "political"], "short_name": "Davis"}, {"long_name": "Iowa", "types": ["administrative_area_level_1", "political"], "short_name": "IA"}, {"long_name": "United States", "types": ["country", "political"], "short_name": "US"}, {"long_name": "52537", "types": ["postal_code"], "short_name": "52537"}], "partial_match": true, "formatted_address": "Bloomfield Avenue, Bloomfield, IA 52537, USA", "types": ["route"]}, {"geometry": {"bounds": {"northeast": {"lat": 40.7512603, "lng": -92.4205269}, "southwest": {"lat": 40.7496281, "lng": -92.4205526}}, "location": {"lat": 40.7512603, "lng": -92.4205526}, "viewport": {"northeast": {"lat": 40.75179318029149, "lng": -92.41919076970849}, "southwest": {"lat": 40.74909521970849, "lng": -92.42188873029151}}, "location_type": "GEOMETRIC_CENTER"}, "address_components": [{"long_name": "South Bloomfield Avenue", "types": ["route"], "short_name": "S Bloomfield Ave"}, {"long_name": "Bloomfield", "types": ["locality", "political"], "short_name": "Bloomfield"}, {"long_name": "Davis", "types": ["administrative_area_level_2", "political"], "short_name": "Davis"}, {"long_name": "Iowa", "types": ["administrative_area_level_1", "political"], "short_name": "IA"}, {"long_name": "United States", "types": ["country", "political"], "short_name": "US"}, {"long_name": "52537", "types": ["postal_code"], "short_name": "52537"}], "partial_match": true, "formatted_address": "South Bloomfield Avenue, Bloomfield, IA 52537, USA", "types": ["route"]}, {"geometry": {"bounds": {"northeast": {"lat": 40.752692, "lng": -92.4205116}, "southwest": {"lat": 40.7512603, "lng": -92.4205526}}, "location": {"lat": 40.752692, "lng": -92.4205116}, "viewport": {"northeast": {"lat": 40.75332513029149, "lng": -92.41918311970849}, "southwest": {"lat": 40.75062716970849, "lng": -92.4218810802915}}, "location_type": "GEOMETRIC_CENTER"}, "address_components": [{"long_name": "North Bloomfield Avenue", "types": ["route"], "short_name": "N Bloomfield Ave"}, {"long_name": "Bloomfield", "types": ["locality", "political"], "short_name": "Bloomfield"}, {"long_name": "Davis", "types": ["administrative_area_level_2", "political"], "short_name": "Davis"}, {"long_name": "Iowa", "types": ["administrative_area_level_1", "political"], "short_name": "IA"}, {"long_name": "United States", "types": ["country", "political"], "short_name": "US"}, {"long_name": "52537", "types": ["postal_code"], "short_name": "52537"}], "partial_match": true, "formatted_address": "North Bloomfield Avenue, Bloomfield, IA 52537, USA", "types": ["route"]}, {"geometry": {"bounds": {"northeast": {"lat": 42.0054401, "lng": -90.6105932}, "southwest": {"lat": 42.0015067, "lng": -90.61062729999999}}, "location": {"lat": 42.0036565, "lng": -90.61062190000001}, "viewport": {"northeast": {"lat": 42.0054401, "lng": -90.6092612697085}, "southwest": {"lat": 42.0015067, "lng": -90.6119592302915}}, "location_type": "GEOMETRIC_CENTER"}, "address_components": [{"long_name": "Bloomfield Avenue", "types": ["route"], "short_name": "Bloomfield Ave"}, {"long_name": "Delmar", "types": ["locality", "political"], "short_name": "Delmar"}, {"long_name": "Bloomfield", "types": ["administrative_area_level_3", "political"], "short_name": "Bloomfield"}, {"long_name": "Clinton", "types": ["administrative_area_level_2", "political"], "short_name": "Clinton"}, {"long_name": "Iowa", "types": ["administrative_area_level_1", "political"], "short_name": "IA"}, {"long_name": "United States", "types": ["country", "political"], "short_name": "US"}, {"long_name": "52037", "types": ["postal_code"], "short_name": "52037"}], "partial_match": true, "formatted_address": "Bloomfield Avenue, Delmar, IA 52037, USA", "types": ["route"]}], "Property Name": "Bloomfield Square", "Listed Date": "07-Nov-76"}