{"City": "Jefferson", "Address Description": "", "County": "Greene", "Address": "507 E Lincoln Way ", "geo": [{"geometry": {"bounds": {"northeast": {"lat": 41.1507814, "lng": -91.6682007}, "southwest": {"lat": 41.1507814, "lng": -91.6682192}}, "location": {"lat": 41.1507814, "lng": -91.6682007}, "viewport": {"northeast": {"lat": 41.1521303802915, "lng": -91.6668609697085}, "southwest": {"lat": 41.1494324197085, "lng": -91.6695589302915}}, "location_type": "RANGE_INTERPOLATED"}, "address_components": [{"long_name": "507", "types": ["street_number"], "short_name": "507"}, {"long_name": "North Lincoln Street", "types": ["route"], "short_name": "N Lincoln St"}, {"long_name": "Wayland", "types": ["locality", "political"], "short_name": "Wayland"}, {"long_name": "Jefferson", "types": ["administrative_area_level_3", "political"], "short_name": "Jefferson"}, {"long_name": "Henry", "types": ["administrative_area_level_2", "political"], "short_name": "Henry"}, {"long_name": "Iowa", "types": ["administrative_area_level_1", "political"], "short_name": "IA"}, {"long_name": "United States", "types": ["country", "political"], "short_name": "US"}, {"long_name": "52654", "types": ["postal_code"], "short_name": "52654"}], "partial_match": true, "formatted_address": "507 North Lincoln Street, Wayland, IA 52654, USA", "types": ["street_address"]}, {"geometry": {"bounds": {"northeast": {"lat": 42.6686525, "lng": -92.3310265}, "southwest": {"lat": 42.6686389, "lng": -92.3310266}}, "location": {"lat": 42.6686389, "lng": -92.3310266}, "viewport": {"northeast": {"lat": 42.6699946802915, "lng": -92.32967756970851}, "southwest": {"lat": 42.6672967197085, "lng": -92.33237553029151}}, "location_type": "RANGE_INTERPOLATED"}, "address_components": [{"long_name": "507", "types": ["street_number"], "short_name": "507"}, {"long_name": "Lincoln Street", "types": ["route"], "short_name": "Lincoln St"}, {"long_name": "Denver", "types": ["locality", "political"], "short_name": "Denver"}, {"long_name": "Jefferson", "types": ["administrative_area_level_3", "political"], "short_name": "Jefferson"}, {"long_name": "Bremer", "types": ["administrative_area_level_2", "political"], "short_name": "Bremer"}, {"long_name": "Iowa", "types": ["administrative_area_level_1", "political"], "short_name": "IA"}, {"long_name": "United States", "types": ["country", "political"], "short_name": "US"}, {"long_name": "50622", "types": ["postal_code"], "short_name": "50622"}], "partial_match": true, "formatted_address": "507 Lincoln Street, Denver, IA 50622, USA", "types": ["street_address"]}, {"geometry": {"location": {"lat": 41.3555009, "lng": -93.55865299999999}, "viewport": {"northeast": {"lat": 41.35684988029149, "lng": -93.5573040197085}, "southwest": {"lat": 41.3541519197085, "lng": -93.5600019802915}}, "location_type": "ROOFTOP"}, "address_components": [{"long_name": "507", "types": ["street_number"], "short_name": "507"}, {"long_name": "South Jefferson Way", "types": ["route"], "short_name": "S Jefferson Way"}, {"long_name": "Indianola", "types": ["locality", "political"], "short_name": "Indianola"}, {"long_name": "Warren", "types": ["administrative_area_level_2", "political"], "short_name": "Warren"}, {"long_name": "Iowa", "types": ["administrative_area_level_1", "political"], "short_name": "IA"}, {"long_name": "United States", "types": ["country", "political"], "short_name": "US"}, {"long_name": "50125", "types": ["postal_code"], "short_name": "50125"}], "partial_match": true, "formatted_address": "507 South Jefferson Way, Indianola, IA 50125, USA", "types": ["street_address"]}, {"geometry": {"bounds": {"northeast": {"lat": 42.68527599999999, "lng": -91.9070258}, "southwest": {"lat": 42.6852625, "lng": -91.90702639999999}}, "location": {"lat": 42.68527599999999, "lng": -91.90702639999999}, "viewport": {"northeast": {"lat": 42.68661823029149, "lng": -91.9056771197085}, "southwest": {"lat": 42.68392026970849, "lng": -91.9083750802915}}, "location_type": "RANGE_INTERPOLATED"}, "address_components": [{"long_name": "507", "types": ["street_number"], "short_name": "507"}, {"long_name": "Lincoln Drive Northeast", "types": ["route"], "short_name": "Lincoln Dr NE"}, {"long_name": "Oelwein", "types": ["locality", "political"], "short_name": "Oelwein"}, {"long_name": "Jefferson", "types": ["administrative_area_level_3", "political"], "short_name": "Jefferson"}, {"long_name": "Fayette", "types": ["administrative_area_level_2", "political"], "short_name": "Fayette"}, {"long_name": "Iowa", "types": ["administrative_area_level_1", "political"], "short_name": "IA"}, {"long_name": "United States", "types": ["country", "political"], "short_name": "US"}, {"long_name": "50662", "types": ["postal_code"], "short_name": "50662"}], "partial_match": true, "formatted_address": "507 Lincoln Drive Northeast, Oelwein, IA 50662, USA", "types": ["street_address"]}, {"geometry": {"bounds": {"northeast": {"lat": 42.0150984, "lng": -94.3967717}, "southwest": {"lat": 42.01499159999999, "lng": -94.3986736}}, "location": {"lat": 42.0150984, "lng": -94.39697009999999}, "viewport": {"northeast": {"lat": 42.0163939802915, "lng": -94.3963736697085}, "southwest": {"lat": 42.0136960197085, "lng": -94.39907163029152}}, "location_type": "GEOMETRIC_CENTER"}, "address_components": [{"long_name": "Lincoln Court", "types": ["route"], "short_name": "Lincoln Ct"}, {"long_name": "Jefferson", "types": ["locality", "political"], "short_name": "Jefferson"}, {"long_name": "Greene", "types": ["administrative_area_level_2", "political"], "short_name": "Greene"}, {"long_name": "Iowa", "types": ["administrative_area_level_1", "political"], "short_name": "IA"}, {"long_name": "United States", "types": ["country", "political"], "short_name": "US"}, {"long_name": "50129", "types": ["postal_code"], "short_name": "50129"}], "partial_match": true, "formatted_address": "Lincoln Court, Jefferson, IA 50129, USA", "types": ["route"]}, {"geometry": {"bounds": {"northeast": {"lat": 42.01521229999999, "lng": -94.3886558}, "southwest": {"lat": 42.01367399999999, "lng": -94.3891165}}, "location": {"lat": 42.0142094, "lng": -94.3891036}, "viewport": {"northeast": {"lat": 42.01579213029149, "lng": -94.3875371697085}, "southwest": {"lat": 42.01309416970849, "lng": -94.3902351302915}}, "location_type": "GEOMETRIC_CENTER"}, "address_components": [{"long_name": "Lincoln Place", "types": ["route"], "short_name": "Lincoln Pl"}, {"long_name": "Jefferson", "types": ["locality", "political"], "short_name": "Jefferson"}, {"long_name": "Greene", "types": ["administrative_area_level_2", "political"], "short_name": "Greene"}, {"long_name": "Iowa", "types": ["administrative_area_level_1", "political"], "short_name": "IA"}, {"long_name": "United States", "types": ["country", "political"], "short_name": "US"}, {"long_name": "50129", "types": ["postal_code"], "short_name": "50129"}], "partial_match": true, "formatted_address": "Lincoln Place, Jefferson, IA 50129, USA", "types": ["route"]}, {"geometry": {"bounds": {"northeast": {"lat": 42.60678, "lng": -96.5668836}, "southwest": {"lat": 42.60678, "lng": -96.566902}}, "location": {"lat": 42.60678, "lng": -96.566902}, "viewport": {"northeast": {"lat": 42.6081289802915, "lng": -96.5655438197085}, "southwest": {"lat": 42.6054310197085, "lng": -96.56824178029152}}, "location_type": "RANGE_INTERPOLATED"}, "address_components": [{"long_name": "507", "types": ["street_number"], "short_name": "507"}, {"long_name": "Lincoln Street", "types": ["route"], "short_name": "Lincoln St"}, {"long_name": "Jefferson", "types": ["locality", "political"], "short_name": "Jefferson"}, {"long_name": "Union", "types": ["administrative_area_level_2", "political"], "short_name": "Union"}, {"long_name": "South Dakota", "types": ["administrative_area_level_1", "political"], "short_name": "SD"}, {"long_name": "United States", "types": ["country", "political"], "short_name": "US"}, {"long_name": "57038", "types": ["postal_code"], "short_name": "57038"}], "partial_match": true, "formatted_address": "507 Lincoln Street, Jefferson, SD 57038, USA", "types": ["street_address"]}, {"geometry": {"bounds": {"northeast": {"lat": 41.364475, "lng": -93.5583444}, "southwest": {"lat": 41.364475, "lng": -93.5583628}}, "location": {"lat": 41.364475, "lng": -93.5583628}, "viewport": {"northeast": {"lat": 41.3658239802915, "lng": -93.5570046197085}, "southwest": {"lat": 41.3631260197085, "lng": -93.5597025802915}}, "location_type": "RANGE_INTERPOLATED"}, "address_components": [{"long_name": "507", "types": ["street_number"], "short_name": "507"}, {"long_name": "North Jefferson Way", "types": ["route"], "short_name": "N Jefferson Way"}, {"long_name": "Indianola", "types": ["locality", "political"], "short_name": "Indianola"}, {"long_name": "Warren", "types": ["administrative_area_level_2", "political"], "short_name": "Warren"}, {"long_name": "Iowa", "types": ["administrative_area_level_1", "political"], "short_name": "IA"}, {"long_name": "United States", "types": ["country", "political"], "short_name": "US"}, {"long_name": "50125", "types": ["postal_code"], "short_name": "50125"}], "partial_match": true, "formatted_address": "507 North Jefferson Way, Indianola, IA 50125, USA", "types": ["street_address"]}], "Property Name": "Chicago, Milwaukee, & St. Paul Depot -- Jefferson", "Listed Date": "30-Sep-94"}