{"City": "Davenport", "Address Description": "Bordered by Brady, Main, Harrison, 11th and 15th Sts", "County": "Scott", "Address": "", "geo": [{"geometry": {"bounds": {"northeast": {"lat": 41.5020834, "lng": -90.55711490000002}, "southwest": {"lat": 41.501188, "lng": -90.55913199999999}}, "location": {"lat": 41.5013857, "lng": -90.55803089999999}, "viewport": {"northeast": {"lat": 41.5029846802915, "lng": -90.55677446970851}, "southwest": {"lat": 41.50028671970851, "lng": -90.55947243029152}}, "location_type": "GEOMETRIC_CENTER"}, "address_components": [{"long_name": "College Hill Circle", "types": ["route"], "short_name": "College Hill Cir"}, {"long_name": "Rock Island", "types": ["locality", "political"], "short_name": "Rock Island"}, {"long_name": "Rock Island", "types": ["administrative_area_level_3", "political"], "short_name": "Rock Island"}, {"long_name": "Rock Island", "types": ["administrative_area_level_2", "political"], "short_name": "Rock Island"}, {"long_name": "Illinois", "types": ["administrative_area_level_1", "political"], "short_name": "IL"}, {"long_name": "United States", "types": ["country", "political"], "short_name": "US"}, {"long_name": "61201", "types": ["postal_code"], "short_name": "61201"}], "partial_match": true, "formatted_address": "College Hill Circle, Rock Island, IL 61201, USA", "types": ["route"]}, {"geometry": {"bounds": {"northeast": {"lat": 41.501696, "lng": -90.5587843}, "southwest": {"lat": 41.501011, "lng": -90.560052}}, "location": {"lat": 41.501331, "lng": -90.55936609999999}, "viewport": {"northeast": {"lat": 41.5027024802915, "lng": -90.55806916970849}, "southwest": {"lat": 41.5000045197085, "lng": -90.56076713029151}}, "location_type": "GEOMETRIC_CENTER"}, "address_components": [{"long_name": "College Hill Court", "types": ["route"], "short_name": "College Hill Ct"}, {"long_name": "Rock Island", "types": ["locality", "political"], "short_name": "Rock Island"}, {"long_name": "Rock Island", "types": ["administrative_area_level_3", "political"], "short_name": "Rock Island"}, {"long_name": "Rock Island", "types": ["administrative_area_level_2", "political"], "short_name": "Rock Island"}, {"long_name": "Illinois", "types": ["administrative_area_level_1", "political"], "short_name": "IL"}, {"long_name": "United States", "types": ["country", "political"], "short_name": "US"}, {"long_name": "61201", "types": ["postal_code"], "short_name": "61201"}], "partial_match": true, "formatted_address": "College Hill Court, Rock Island, IL 61201, USA", "types": ["route"]}], "Property Name": "College Square Historic District", "Listed Date": "18-Nov-83"}