{"City": "Denmark", "Address Description": "Corner of 4th and Academy", "County": "Lee", "Address": "  4th St ", "geo": [{"geometry": {"location": {"lat": 40.74185809999999, "lng": -91.3340252}, "viewport": {"northeast": {"lat": 40.7503115, "lng": -91.31801779999999}, "southwest": {"lat": 40.7334036, "lng": -91.35003259999999}}, "location_type": "APPROXIMATE"}, "address_components": [{"long_name": "Congregational United Church", "types": ["point_of_interest", "establishment"], "short_name": "Congregational United Church"}, {"long_name": "401", "types": ["street_number"], "short_name": "401"}, {"long_name": "Academy Avenue", "types": ["route"], "short_name": "Academy Ave"}, {"long_name": "Denmark", "types": ["locality", "political"], "short_name": "Denmark"}, {"long_name": "Denmark", "types": ["administrative_area_level_3", "political"], "short_name": "Denmark"}, {"long_name": "Lee", "types": ["administrative_area_level_2", "political"], "short_name": "Lee"}, {"long_name": "Iowa", "types": ["administrative_area_level_1", "political"], "short_name": "IA"}, {"long_name": "United States", "types": ["country", "political"], "short_name": "US"}, {"long_name": "52624", "types": ["postal_code"], "short_name": "52624"}], "partial_match": true, "formatted_address": "Congregational United Church, 401 Academy Avenue, Denmark, IA 52624, USA", "types": ["point_of_interest", "church", "place_of_worship", "establishment"]}, {"geometry": {"location": {"lat": 40.7416434, "lng": -91.3305113}, "viewport": {"northeast": {"lat": 40.7429923802915, "lng": -91.32916231970849}, "southwest": {"lat": 40.7402944197085, "lng": -91.33186028029151}}, "location_type": "APPROXIMATE"}, "address_components": [{"long_name": "Congregational United Church", "types": ["point_of_interest", "establishment"], "short_name": "Congregational United Church"}, {"long_name": "204", "types": ["street_number"], "short_name": "204"}, {"long_name": "Academy Avenue", "types": ["route"], "short_name": "Academy Ave"}, {"long_name": "Denmark", "types": ["locality", "political"], "short_name": "Denmark"}, {"long_name": "Denmark", "types": ["administrative_area_level_3", "political"], "short_name": "Denmark"}, {"long_name": "Lee", "types": ["administrative_area_level_2", "political"], "short_name": "Lee"}, {"long_name": "Iowa", "types": ["administrative_area_level_1", "political"], "short_name": "IA"}, {"long_name": "United States", "types": ["country", "political"], "short_name": "US"}, {"long_name": "52624", "types": ["postal_code"], "short_name": "52624"}], "partial_match": true, "formatted_address": "Congregational United Church, 204 Academy Avenue, Denmark, IA 52624, USA", "types": ["point_of_interest", "church", "place_of_worship", "establishment"]}], "Property Name": "Denmark Congregational Church", "Listed Date": "02-Dec-77"}