{"City": "Davenport", "Address Description": "Between W. River Dr. and Beiderbecke Dr.", "County": "Scott", "Address": " S Main St ", "geo": [{"geometry": {"bounds": {"northeast": {"lat": 41.5199791, "lng": -90.57553899999999}, "southwest": {"lat": 41.5199098, "lng": -90.57563019999999}}, "location": {"lat": 41.5199445, "lng": -90.5755846}, "viewport": {"northeast": {"lat": 41.5212934302915, "lng": -90.57423561970849}, "southwest": {"lat": 41.5185954697085, "lng": -90.5769335802915}}, "location_type": "APPROXIMATE"}, "address_components": [{"long_name": "Dillon Memorial", "types": ["premise"], "short_name": "Dillon Memorial"}, {"long_name": "Main Street", "types": ["route"], "short_name": "Main St"}, {"long_name": "Davenport", "types": ["locality", "political"], "short_name": "Davenport"}, {"long_name": "Scott", "types": ["administrative_area_level_2", "political"], "short_name": "Scott"}, {"long_name": "Iowa", "types": ["administrative_area_level_1", "political"], "short_name": "IA"}, {"long_name": "United States", "types": ["country", "political"], "short_name": "US"}, {"long_name": "52801", "types": ["postal_code"], "short_name": "52801"}], "partial_match": true, "formatted_address": "Dillon Memorial, Main Street, Davenport, IA 52801, USA", "types": ["premise"]}], "Property Name": "Dillon Memorial", "Listed Date": "07-Jul-83"}