{"City": "Eldora", "Address Description": "Approx 10 blocks around the courthouse square", "County": "Hardin", "Address": "", "geo": [{"geometry": {"location": {"lat": 42.3599731, "lng": -93.09886399999999}, "viewport": {"northeast": {"lat": 42.3682175, "lng": -93.08285660000001}, "southwest": {"lat": 42.3517276, "lng": -93.1148714}}, "location_type": "APPROXIMATE"}, "address_components": [{"long_name": "Edgington Land Patent Historical Marker", "types": ["point_of_interest", "establishment"], "short_name": "Edgington Land Patent Historical Marker"}, {"long_name": "Eldora", "types": ["locality", "political"], "short_name": "Eldora"}, {"long_name": "Hardin", "types": ["administrative_area_level_2", "political"], "short_name": "Hardin"}, {"long_name": "Iowa", "types": ["administrative_area_level_1", "political"], "short_name": "IA"}, {"long_name": "United States", "types": ["country", "political"], "short_name": "US"}, {"long_name": "50627", "types": ["postal_code"], "short_name": "50627"}], "partial_match": true, "formatted_address": "Edgington Land Patent Historical Marker, Eldora, IA 50627, USA", "types": ["point_of_interest", "establishment"]}, {"geometry": {"location": {"lat": 42.3603031, "lng": -93.09883549999999}, "viewport": {"northeast": {"lat": 42.3616520802915, "lng": -93.0974865197085}, "southwest": {"lat": 42.3589541197085, "lng": -93.1001844802915}}, "location_type": "APPROXIMATE"}, "address_components": [{"long_name": "Memorial to Eldora Pioneers Historical Marker", "types": ["point_of_interest", "establishment"], "short_name": "Memorial to Eldora Pioneers Historical Marker"}, {"long_name": "Eldora", "types": ["locality", "political"], "short_name": "Eldora"}, {"long_name": "Hardin", "types": ["administrative_area_level_2", "political"], "short_name": "Hardin"}, {"long_name": "Iowa", "types": ["administrative_area_level_1", "political"], "short_name": "IA"}, {"long_name": "United States", "types": ["country", "political"], "short_name": "US"}, {"long_name": "50627", "types": ["postal_code"], "short_name": "50627"}], "partial_match": true, "formatted_address": "Memorial to Eldora Pioneers Historical Marker, Eldora, IA 50627, USA", "types": ["point_of_interest", "establishment"]}], "Property Name": "Eldora Downtown Historic District", "Listed Date": "12-May-09"}