{"City": "Logan", "Address Description": "Between 1st and 2nd sts.", "County": "Harrison", "Address": "  7th St ", "geo": [{"geometry": {"bounds": {"northeast": {"lat": 41.6431839, "lng": -95.7822795}, "southwest": {"lat": 41.6429119, "lng": -95.7904972}}, "location": {"lat": 41.6430275, "lng": -95.7864688}, "viewport": {"northeast": {"lat": 41.6443968802915, "lng": -95.7822795}, "southwest": {"lat": 41.6416989197085, "lng": -95.7904972}}, "location_type": "GEOMETRIC_CENTER"}, "address_components": [{"long_name": "East 7th Street", "types": ["route"], "short_name": "E 7th St"}, {"long_name": "Logan", "types": ["locality", "political"], "short_name": "Logan"}, {"long_name": "Jefferson", "types": ["administrative_area_level_3", "political"], "short_name": "Jefferson"}, {"long_name": "Harrison", "types": ["administrative_area_level_2", "political"], "short_name": "Harrison"}, {"long_name": "Iowa", "types": ["administrative_area_level_1", "political"], "short_name": "IA"}, {"long_name": "United States", "types": ["country", "political"], "short_name": "US"}, {"long_name": "51546", "types": ["postal_code"], "short_name": "51546"}], "partial_match": true, "formatted_address": "East 7th Street, Logan, IA 51546, USA", "types": ["route"]}, {"geometry": {"bounds": {"northeast": {"lat": 41.643253, "lng": -95.7904972}, "southwest": {"lat": 41.64290099999999, "lng": -95.79588210000001}}, "location": {"lat": 41.6430635, "lng": -95.7931854}, "viewport": {"northeast": {"lat": 41.64442598029149, "lng": -95.7904972}, "southwest": {"lat": 41.64172801970849, "lng": -95.79588210000001}}, "location_type": "GEOMETRIC_CENTER"}, "address_components": [{"long_name": "West 7th Street", "types": ["route"], "short_name": "W 7th St"}, {"long_name": "Logan", "types": ["locality", "political"], "short_name": "Logan"}, {"long_name": "Jefferson", "types": ["administrative_area_level_3", "political"], "short_name": "Jefferson"}, {"long_name": "Harrison", "types": ["administrative_area_level_2", "political"], "short_name": "Harrison"}, {"long_name": "Iowa", "types": ["administrative_area_level_1", "political"], "short_name": "IA"}, {"long_name": "United States", "types": ["country", "political"], "short_name": "US"}, {"long_name": "51546", "types": ["postal_code"], "short_name": "51546"}], "partial_match": true, "formatted_address": "West 7th Street, Logan, IA 51546, USA", "types": ["route"]}, {"geometry": {"bounds": {"northeast": {"lat": 42.9944007, "lng": -96.4703018}, "southwest": {"lat": 42.9929403, "lng": -96.49442649999999}}, "location": {"lat": 42.9932011, "lng": -96.482366}, "viewport": {"northeast": {"lat": 42.9950194802915, "lng": -96.4703018}, "southwest": {"lat": 42.9923215197085, "lng": -96.49442649999999}}, "location_type": "GEOMETRIC_CENTER"}, "address_components": [{"long_name": "7th Street", "types": ["route"], "short_name": "7th St"}, {"long_name": "Hawarden", "types": ["locality", "political"], "short_name": "Hawarden"}, {"long_name": "Logan", "types": ["administrative_area_level_3", "political"], "short_name": "Logan"}, {"long_name": "Sioux", "types": ["administrative_area_level_2", "political"], "short_name": "Sioux"}, {"long_name": "Iowa", "types": ["administrative_area_level_1", "political"], "short_name": "IA"}, {"long_name": "United States", "types": ["country", "political"], "short_name": "US"}, {"long_name": "51023", "types": ["postal_code"], "short_name": "51023"}], "partial_match": true, "formatted_address": "7th Street, Hawarden, IA 51023, USA", "types": ["route"]}], "Property Name": "Harrison County Courthouse", "Listed Date": "02-Jul-81"}