{"City": "Dubuque", "Address Description": "", "County": "Dubuque", "Address": "1296  Mt Pleasant St ", "geo": [{"geometry": {"bounds": {"northeast": {"lat": 42.521384, "lng": -90.6654489}, "southwest": {"lat": 42.520905, "lng": -90.6680878}}, "location": {"lat": 42.5211605, "lng": -90.66635579999999}, "viewport": {"northeast": {"lat": 42.52249348029149, "lng": -90.66541936970849}, "southwest": {"lat": 42.5197955197085, "lng": -90.6681173302915}}, "location_type": "GEOMETRIC_CENTER"}, "address_components": [{"long_name": "Pleasant Street", "types": ["route"], "short_name": "Pleasant St"}, {"long_name": "Dubuque", "types": ["locality", "political"], "short_name": "Dubuque"}, {"long_name": "Dubuque", "types": ["administrative_area_level_2", "political"], "short_name": "Dubuque"}, {"long_name": "Iowa", "types": ["administrative_area_level_1", "political"], "short_name": "IA"}, {"long_name": "United States", "types": ["country", "political"], "short_name": "US"}, {"long_name": "52001", "types": ["postal_code"], "short_name": "52001"}], "partial_match": true, "formatted_address": "Pleasant Street, Dubuque, IA 52001, USA", "types": ["route"]}], "Property Name": "Holland, Ora, House", "Listed Date": "14-Aug-86"}