{"City": "Irwin", "Address Description": "", "County": "Shelby", "Address": "  North St ", "geo": [{"geometry": {"bounds": {"northeast": {"lat": 41.79481699999999, "lng": -95.2048159}, "southwest": {"lat": 41.7945319, "lng": -95.20620799999999}}, "location": {"lat": 41.7945349, "lng": -95.205497}, "viewport": {"northeast": {"lat": 41.79602343029149, "lng": -95.20416296970849}, "southwest": {"lat": 41.7933254697085, "lng": -95.2068609302915}}, "location_type": "GEOMETRIC_CENTER"}, "address_components": [{"long_name": "North Street", "types": ["route"], "short_name": "North St"}, {"long_name": "Irwin", "types": ["locality", "political"], "short_name": "Irwin"}, {"long_name": "Jefferson", "types": ["administrative_area_level_3", "political"], "short_name": "Jefferson"}, {"long_name": "Shelby", "types": ["administrative_area_level_2", "political"], "short_name": "Shelby"}, {"long_name": "Iowa", "types": ["administrative_area_level_1", "political"], "short_name": "IA"}, {"long_name": "United States", "types": ["country", "political"], "short_name": "US"}, {"long_name": "51446", "types": ["postal_code"], "short_name": "51446"}], "partial_match": true, "formatted_address": "North Street, Irwin, IA 51446, USA", "types": ["route"]}], "Property Name": "Irwin Consolidated School", "Listed Date": "24-Oct-02"}