{"City": "Jackson Junction", "Address Description": "Over Turkey River", "County": "Winneshiek", "Address": "  336th Ave ", "geo": [{"geometry": {"bounds": {"northeast": {"lat": 43.097837, "lng": -92.06238139999999}, "southwest": {"lat": 43.0970079, "lng": -92.063655}}, "location": {"lat": 43.0974417, "lng": -92.0629108}, "viewport": {"northeast": {"lat": 43.0987714302915, "lng": -92.06166921970849}, "southwest": {"lat": 43.09607346970851, "lng": -92.0643671802915}}, "location_type": "GEOMETRIC_CENTER"}, "address_components": [{"long_name": "336th Avenue", "types": ["route"], "short_name": "336th Ave"}, {"long_name": "Waucoma", "types": ["locality", "political"], "short_name": "Waucoma"}, {"long_name": "Jackson", "types": ["administrative_area_level_3", "political"], "short_name": "Jackson"}, {"long_name": "Winneshiek", "types": ["administrative_area_level_2", "political"], "short_name": "Winneshiek"}, {"long_name": "Iowa", "types": ["administrative_area_level_1", "political"], "short_name": "IA"}, {"long_name": "United States", "types": ["country", "political"], "short_name": "US"}, {"long_name": "52171", "types": ["postal_code"], "short_name": "52171"}], "partial_match": true, "formatted_address": "336th Avenue, Waucoma, IA 52171, USA", "types": ["route"]}], "Property Name": "Lawrence Bridge", "Listed Date": "15-May-98"}