{"City": "Mason City", "Address Description": "", "County": "Cerro Gordo", "Address": "208 E State St ", "geo": [{"geometry": {"bounds": {"northeast": {"lat": 43.1841158, "lng": -93.112528}, "southwest": {"lat": 43.10434009999999, "lng": -93.280436}}, "location": {"lat": 43.1535728, "lng": -93.20103669999999}, "viewport": {"northeast": {"lat": 43.1841158, "lng": -93.112528}, "southwest": {"lat": 43.10434009999999, "lng": -93.280436}}, "location_type": "APPROXIMATE"}, "address_components": [{"long_name": "Mason City", "types": ["locality", "political"], "short_name": "Mason City"}, {"long_name": "Cerro Gordo", "types": ["administrative_area_level_2", "political"], "short_name": "Cerro Gordo"}, {"long_name": "Iowa", "types": ["administrative_area_level_1", "political"], "short_name": "IA"}, {"long_name": "United States", "types": ["country", "political"], "short_name": "US"}, {"long_name": "50401", "types": ["postal_code"], "short_name": "50401"}], "partial_match": true, "formatted_address": "Mason City, IA 50401, USA", "types": ["locality", "political"]}, {"geometry": {"bounds": {"northeast": {"lat": 40.208695, "lng": -89.6786729}, "southwest": {"lat": 40.1932281, "lng": -89.71175}}, "location": {"lat": 40.2022663, "lng": -89.6981639}, "viewport": {"northeast": {"lat": 40.208695, "lng": -89.6786729}, "southwest": {"lat": 40.1932281, "lng": -89.71175}}, "location_type": "APPROXIMATE"}, "address_components": [{"long_name": "Mason City", "types": ["locality", "political"], "short_name": "Mason City"}, {"long_name": "Mason City", "types": ["administrative_area_level_3", "political"], "short_name": "Mason City"}, {"long_name": "Mason", "types": ["administrative_area_level_2", "political"], "short_name": "Mason"}, {"long_name": "Illinois", "types": ["administrative_area_level_1", "political"], "short_name": "IL"}, {"long_name": "United States", "types": ["country", "political"], "short_name": "US"}, {"long_name": "62664", "types": ["postal_code"], "short_name": "62664"}], "partial_match": true, "formatted_address": "Mason City, IL 62664, USA", "types": ["locality", "political"]}, {"geometry": {"bounds": {"northeast": {"lat": 41.2273629, "lng": -99.290758}, "southwest": {"lat": 41.216344, "lng": -99.30514}}, "location": {"lat": 41.22306409999999, "lng": -99.30037530000001}, "viewport": {"northeast": {"lat": 41.2273629, "lng": -99.290758}, "southwest": {"lat": 41.216344, "lng": -99.30514}}, "location_type": "APPROXIMATE"}, "address_components": [{"long_name": "Mason City", "types": ["locality", "political"], "short_name": "Mason City"}, {"long_name": "Algernon", "types": ["administrative_area_level_3", "political"], "short_name": "Algernon"}, {"long_name": "Custer", "types": ["administrative_area_level_2", "political"], "short_name": "Custer"}, {"long_name": "Nebraska", "types": ["administrative_area_level_1", "political"], "short_name": "NE"}, {"long_name": "United States", "types": ["country", "political"], "short_name": "US"}, {"long_name": "68855", "types": ["postal_code"], "short_name": "68855"}], "partial_match": true, "formatted_address": "Mason City, NE 68855, USA", "types": ["locality", "political"]}, {"geometry": {"bounds": {"northeast": {"lat": 39.401613, "lng": -84.2527581}, "southwest": {"lat": 39.3095349, "lng": -84.34934}}, "location": {"lat": 39.3600586, "lng": -84.309939}, "viewport": {"northeast": {"lat": 39.401613, "lng": -84.2527581}, "southwest": {"lat": 39.3095349, "lng": -84.34934}}, "location_type": "APPROXIMATE"}, "address_components": [{"long_name": "Mason", "types": ["locality", "political"], "short_name": "Mason"}, {"long_name": "Warren", "types": ["administrative_area_level_2", "political"], "short_name": "Warren"}, {"long_name": "Ohio", "types": ["administrative_area_level_1", "political"], "short_name": "OH"}, {"long_name": "United States", "types": ["country", "political"], "short_name": "US"}], "partial_match": true, "formatted_address": "Mason, OH, USA", "types": ["locality", "political"]}, {"geometry": {"bounds": {"northeast": {"lat": 42.604441, "lng": -84.40693809999999}, "southwest": {"lat": 42.55681, "lng": -84.4687429}}, "location": {"lat": 42.5792027, "lng": -84.4435845}, "viewport": {"northeast": {"lat": 42.604441, "lng": -84.40693809999999}, "southwest": {"lat": 42.55681, "lng": -84.4687429}}, "location_type": "APPROXIMATE"}, "address_components": [{"long_name": "Mason", "types": ["locality", "political"], "short_name": "Mason"}, {"long_name": "Ingham", "types": ["administrative_area_level_2", "political"], "short_name": "Ingham"}, {"long_name": "Michigan", "types": ["administrative_area_level_1", "political"], "short_name": "MI"}, {"long_name": "United States", "types": ["country", "political"], "short_name": "US"}, {"long_name": "48854", "types": ["postal_code"], "short_name": "48854"}], "partial_match": true, "formatted_address": "Mason, MI 48854, USA", "types": ["locality", "political"]}, {"geometry": {"bounds": {"northeast": {"lat": 30.762881, "lng": -99.2018458}, "southwest": {"lat": 30.733672, "lng": -99.2513171}}, "location": {"lat": 30.7487884, "lng": -99.230611}, "viewport": {"northeast": {"lat": 30.762881, "lng": -99.2018458}, "southwest": {"lat": 30.733672, "lng": -99.2513171}}, "location_type": "APPROXIMATE"}, "address_components": [{"long_name": "Mason", "types": ["locality", "political"], "short_name": "Mason"}, {"long_name": "Mason", "types": ["administrative_area_level_2", "political"], "short_name": "Mason"}, {"long_name": "Texas", "types": ["administrative_area_level_1", "political"], "short_name": "TX"}, {"long_name": "United States", "types": ["country", "political"], "short_name": "US"}, {"long_name": "76856", "types": ["postal_code"], "short_name": "76856"}], "partial_match": true, "formatted_address": "Mason, TX 76856, USA", "types": ["locality", "political"]}], "Property Name": "Mason City Public Library", "Listed Date": "25-May-89"}