{"City": "Weldon", "Address Description": "N Main St at Decatur county line", "County": "Decatur", "Address": " N Main St ", "geo": [{"geometry": {"bounds": {"northeast": {"lat": 40.89929, "lng": -93.7347314}, "southwest": {"lat": 40.8975269, "lng": -93.7350149}}, "location": {"lat": 40.8984198, "lng": -93.7347496}, "viewport": {"northeast": {"lat": 40.89975743029149, "lng": -93.73352416970849}, "southwest": {"lat": 40.89705946970849, "lng": -93.73622213029151}}, "location_type": "GEOMETRIC_CENTER"}, "address_components": [{"long_name": "North Main Street", "types": ["route"], "short_name": "N Main St"}, {"long_name": "Weldon", "types": ["locality", "political"], "short_name": "Weldon"}, {"long_name": "Franklin", "types": ["administrative_area_level_3", "political"], "short_name": "Franklin"}, {"long_name": "Decatur", "types": ["administrative_area_level_2", "political"], "short_name": "Decatur"}, {"long_name": "Iowa", "types": ["administrative_area_level_1", "political"], "short_name": "IA"}, {"long_name": "United States", "types": ["country", "political"], "short_name": "US"}, {"long_name": "50264", "types": ["postal_code"], "short_name": "50264"}], "partial_match": true, "formatted_address": "North Main Street, Weldon, IA 50264, USA", "types": ["route"]}], "Property Name": "Missouri, Iowa and Nebraska Railway Company Depot -- Weldon", "Listed Date": "13-Dec-91"}