{"City": "Albia", "Address Description": "Main St between Benton and Washington Sts", "County": "Monroe", "Address": "  Main St ", "geo": [{"geometry": {"bounds": {"northeast": {"lat": 41.0271303, "lng": -92.80683499999999}, "southwest": {"lat": 41.0210822, "lng": -92.80713820000001}}, "location": {"lat": 41.02426759999999, "lng": -92.8070434}, "viewport": {"northeast": {"lat": 41.0271303, "lng": -92.8056376197085}, "southwest": {"lat": 41.0210822, "lng": -92.80833558029151}}, "location_type": "GEOMETRIC_CENTER"}, "address_components": [{"long_name": "South Main Street", "types": ["route"], "short_name": "S Main St"}, {"long_name": "Albia", "types": ["locality", "political"], "short_name": "Albia"}, {"long_name": "Troy", "types": ["administrative_area_level_3", "political"], "short_name": "Troy"}, {"long_name": "Monroe", "types": ["administrative_area_level_2", "political"], "short_name": "Monroe"}, {"long_name": "Iowa", "types": ["administrative_area_level_1", "political"], "short_name": "IA"}, {"long_name": "United States", "types": ["country", "political"], "short_name": "US"}, {"long_name": "52531", "types": ["postal_code"], "short_name": "52531"}], "partial_match": true, "formatted_address": "South Main Street, Albia, IA 52531, USA", "types": ["route"]}, {"geometry": {"bounds": {"northeast": {"lat": 41.0320211, "lng": -92.8071006}, "southwest": {"lat": 41.0271303, "lng": -92.80728669999999}}, "location": {"lat": 41.0296807, "lng": -92.8071207}, "viewport": {"northeast": {"lat": 41.0320211, "lng": -92.80584466970849}, "southwest": {"lat": 41.0271303, "lng": -92.8085426302915}}, "location_type": "GEOMETRIC_CENTER"}, "address_components": [{"long_name": "North Main Street", "types": ["route"], "short_name": "N Main St"}, {"long_name": "Albia", "types": ["locality", "political"], "short_name": "Albia"}, {"long_name": "Troy", "types": ["administrative_area_level_3", "political"], "short_name": "Troy"}, {"long_name": "Monroe", "types": ["administrative_area_level_2", "political"], "short_name": "Monroe"}, {"long_name": "Iowa", "types": ["administrative_area_level_1", "political"], "short_name": "IA"}, {"long_name": "United States", "types": ["country", "political"], "short_name": "US"}, {"long_name": "52531", "types": ["postal_code"], "short_name": "52531"}], "partial_match": true, "formatted_address": "North Main Street, Albia, IA 52531, USA", "types": ["route"]}, {"geometry": {"bounds": {"northeast": {"lat": 41.0349045, "lng": -92.80718189999999}, "southwest": {"lat": 41.0328204, "lng": -92.80724219999999}}, "location": {"lat": 41.0349045, "lng": -92.80724219999999}, "viewport": {"northeast": {"lat": 41.0352114302915, "lng": -92.8058630697085}, "southwest": {"lat": 41.0325134697085, "lng": -92.8085610302915}}, "location_type": "GEOMETRIC_CENTER"}, "address_components": [{"long_name": "Main Street North", "types": ["route"], "short_name": "Main St N"}, {"long_name": "Albia", "types": ["locality", "political"], "short_name": "Albia"}, {"long_name": "Troy", "types": ["administrative_area_level_3", "political"], "short_name": "Troy"}, {"long_name": "Monroe", "types": ["administrative_area_level_2", "political"], "short_name": "Monroe"}, {"long_name": "Iowa", "types": ["administrative_area_level_1", "political"], "short_name": "IA"}, {"long_name": "United States", "types": ["country", "political"], "short_name": "US"}, {"long_name": "52531", "types": ["postal_code"], "short_name": "52531"}], "partial_match": true, "formatted_address": "Main Street North, Albia, IA 52531, USA", "types": ["route"]}], "Property Name": "Monroe County Courthouse", "Listed Date": "02-Jul-81"}