{"City": "Des Moines", "Address Description": "E 1st at Locust St/ p.k.a. 400 E. 1st Street", "County": "Polk", "Address": "400  Robert D. Ray Dr ", "geo": [{"geometry": {"bounds": {"northeast": {"lat": 41.5894197, "lng": -93.61628830000001}, "southwest": {"lat": 41.5887466, "lng": -93.6167859}}, "location": {"lat": 41.5889808, "lng": -93.6164771}, "viewport": {"northeast": {"lat": 41.5904321302915, "lng": -93.61518811970849}, "southwest": {"lat": 41.5877341697085, "lng": -93.6178860802915}}, "location_type": "APPROXIMATE"}, "address_components": [{"long_name": "400", "types": ["street_number"], "short_name": "400"}, {"long_name": "Robert D. Ray Drive", "types": ["route"], "short_name": "Robert D. Ray Dr"}, {"long_name": "East Village", "types": ["neighborhood", "political"], "short_name": "East Village"}, {"long_name": "Des Moines", "types": ["locality", "political"], "short_name": "Des Moines"}, {"long_name": "Lee", "types": ["administrative_area_level_3", "political"], "short_name": "Lee"}, {"long_name": "Polk", "types": ["administrative_area_level_2", "political"], "short_name": "Polk"}, {"long_name": "Iowa", "types": ["administrative_area_level_1", "political"], "short_name": "IA"}, {"long_name": "United States", "types": ["country", "political"], "short_name": "US"}, {"long_name": "50309", "types": ["postal_code"], "short_name": "50309"}], "partial_match": true, "formatted_address": "400 Robert D. Ray Drive, Des Moines, IA 50309, USA", "types": ["premise"]}], "Property Name": "Municipal Building", "Listed Date": "10-Nov-77"}