{"City": "Primghar", "Address Description": "1st Ave between 15th and 16th Sts", "County": "O'Brien", "Address": "  1st Ave ", "geo": [{"geometry": {"bounds": {"northeast": {"lat": 43.087255, "lng": -95.6206047}, "southwest": {"lat": 43.0866105, "lng": -95.6284029}}, "location": {"lat": 43.0872456, "lng": -95.62429569999999}, "viewport": {"northeast": {"lat": 43.0882817302915, "lng": -95.6206047}, "southwest": {"lat": 43.0855837697085, "lng": -95.6284029}}, "location_type": "GEOMETRIC_CENTER"}, "address_components": [{"long_name": "1st Street Northeast", "types": ["route"], "short_name": "1st St NE"}, {"long_name": "Primghar", "types": ["locality", "political"], "short_name": "Primghar"}, {"long_name": "O'Brien", "types": ["administrative_area_level_2", "political"], "short_name": "O'Brien"}, {"long_name": "Iowa", "types": ["administrative_area_level_1", "political"], "short_name": "IA"}, {"long_name": "United States", "types": ["country", "political"], "short_name": "US"}, {"long_name": "51245", "types": ["postal_code"], "short_name": "51245"}], "partial_match": true, "formatted_address": "1st Street Northeast, Primghar, IA 51245, USA", "types": ["route"]}, {"geometry": {"bounds": {"northeast": {"lat": 43.08725, "lng": -95.6284029}, "southwest": {"lat": 43.0872208, "lng": -95.6350863}}, "location": {"lat": 43.08722789999999, "lng": -95.632212}, "viewport": {"northeast": {"lat": 43.08858438029149, "lng": -95.6284029}, "southwest": {"lat": 43.0858864197085, "lng": -95.6350863}}, "location_type": "GEOMETRIC_CENTER"}, "address_components": [{"long_name": "1st Street Northwest", "types": ["route"], "short_name": "1st St NW"}, {"long_name": "Primghar", "types": ["locality", "political"], "short_name": "Primghar"}, {"long_name": "Summit", "types": ["administrative_area_level_3", "political"], "short_name": "Summit"}, {"long_name": "O'Brien", "types": ["administrative_area_level_2", "political"], "short_name": "O'Brien"}, {"long_name": "Iowa", "types": ["administrative_area_level_1", "political"], "short_name": "IA"}, {"long_name": "United States", "types": ["country", "political"], "short_name": "US"}, {"long_name": "51245", "types": ["postal_code"], "short_name": "51245"}], "partial_match": true, "formatted_address": "1st Street Northwest, Primghar, IA 51245, USA", "types": ["route"]}, {"geometry": {"bounds": {"northeast": {"lat": 43.086377, "lng": -95.628424}, "southwest": {"lat": 43.086309, "lng": -95.632645}}, "location": {"lat": 43.0863121, "lng": -95.63075180000001}, "viewport": {"northeast": {"lat": 43.0876919802915, "lng": -95.628424}, "southwest": {"lat": 43.0849940197085, "lng": -95.632645}}, "location_type": "GEOMETRIC_CENTER"}, "address_components": [{"long_name": "1st Street Southwest", "types": ["route"], "short_name": "1st St SW"}, {"long_name": "Primghar", "types": ["locality", "political"], "short_name": "Primghar"}, {"long_name": "Summit", "types": ["administrative_area_level_3", "political"], "short_name": "Summit"}, {"long_name": "O'Brien", "types": ["administrative_area_level_2", "political"], "short_name": "O'Brien"}, {"long_name": "Iowa", "types": ["administrative_area_level_1", "political"], "short_name": "IA"}, {"long_name": "United States", "types": ["country", "political"], "short_name": "US"}, {"long_name": "51245", "types": ["postal_code"], "short_name": "51245"}], "partial_match": true, "formatted_address": "1st Street Southwest, Primghar, IA 51245, USA", "types": ["route"]}, {"geometry": {"bounds": {"northeast": {"lat": 43.0863398, "lng": -95.6242989}, "southwest": {"lat": 43.08633589999999, "lng": -95.628424}}, "location": {"lat": 43.08633589999999, "lng": -95.6269339}, "viewport": {"northeast": {"lat": 43.08768683029149, "lng": -95.6242989}, "southwest": {"lat": 43.0849888697085, "lng": -95.628424}}, "location_type": "GEOMETRIC_CENTER"}, "address_components": [{"long_name": "1st Street Southeast", "types": ["route"], "short_name": "1st St SE"}, {"long_name": "Primghar", "types": ["locality", "political"], "short_name": "Primghar"}, {"long_name": "Summit", "types": ["administrative_area_level_3", "political"], "short_name": "Summit"}, {"long_name": "O'Brien", "types": ["administrative_area_level_2", "political"], "short_name": "O'Brien"}, {"long_name": "Iowa", "types": ["administrative_area_level_1", "political"], "short_name": "IA"}, {"long_name": "United States", "types": ["country", "political"], "short_name": "US"}, {"long_name": "51245", "types": ["postal_code"], "short_name": "51245"}], "partial_match": true, "formatted_address": "1st Street Southeast, Primghar, IA 51245, USA", "types": ["route"]}], "Property Name": "O'Brien County Courthouse", "Listed Date": "02-Jul-81"}