{"City": "Dubuque", "Address Description": "100-300 Blocks of Main St", "County": "Dubuque", "Address": "", "geo": [{"geometry": {"bounds": {"northeast": {"lat": 42.471317, "lng": -90.6802977}, "southwest": {"lat": 42.4696842, "lng": -90.6813621}}, "location": {"lat": 42.4704271, "lng": -90.68080359999999}, "viewport": {"northeast": {"lat": 42.4718495802915, "lng": -90.6794809197085}, "southwest": {"lat": 42.4691516197085, "lng": -90.6821788802915}}, "location_type": "GEOMETRIC_CENTER"}, "address_components": [{"long_name": "Old Mill Road", "types": ["route"], "short_name": "Old Mill Rd"}, {"long_name": "Dubuque", "types": ["locality", "political"], "short_name": "Dubuque"}, {"long_name": "Dubuque", "types": ["administrative_area_level_2", "political"], "short_name": "Dubuque"}, {"long_name": "Iowa", "types": ["administrative_area_level_1", "political"], "short_name": "IA"}, {"long_name": "United States", "types": ["country", "political"], "short_name": "US"}, {"long_name": "52003", "types": ["postal_code"], "short_name": "52003"}], "partial_match": true, "formatted_address": "Old Mill Road, Dubuque, IA 52003, USA", "types": ["route"]}, {"geometry": {"bounds": {"northeast": {"lat": 42.6752769, "lng": -90.47381209999999}, "southwest": {"lat": 42.29464, "lng": -90.897836}}, "location": {"lat": 42.5094998, "lng": -90.7152749}, "viewport": {"northeast": {"lat": 42.6752769, "lng": -90.47381209999999}, "southwest": {"lat": 42.29464, "lng": -90.897836}}, "location_type": "APPROXIMATE"}, "address_components": [{"long_name": "Dubuque Community School District", "types": ["political"], "short_name": "Dubuque Community School District"}, {"long_name": "United States", "types": ["country", "political"], "short_name": "US"}], "partial_match": true, "formatted_address": "Dubuque Community School District, USA", "types": ["political"]}, {"geometry": {"bounds": {"northeast": {"lat": 42.5083019, "lng": -90.516779}, "southwest": {"lat": 42.4062468, "lng": -90.65652700000001}}, "location": {"lat": 42.4808497, "lng": -90.5730713}, "viewport": {"northeast": {"lat": 42.5083019, "lng": -90.516779}, "southwest": {"lat": 42.4062468, "lng": -90.65652700000001}}, "location_type": "APPROXIMATE"}, "address_components": [{"long_name": "East Dubuque Community Unit School District 119", "types": ["political"], "short_name": "East Dubuque Community Unit School District 119"}, {"long_name": "United States", "types": ["country", "political"], "short_name": "US"}], "partial_match": true, "formatted_address": "East Dubuque Community Unit School District 119, USA", "types": ["political"]}], "Property Name": "Old Main Historic District", "Listed Date": "12-Jan-83"}