{"City": "Ossian", "Address Description": "", "County": "Winneshiek", "Address": "  Main St ", "geo": [{"geometry": {"bounds": {"northeast": {"lat": 43.145933, "lng": -91.7541712}, "southwest": {"lat": 43.1428687, "lng": -91.76490109999999}}, "location": {"lat": 43.1440051, "lng": -91.75996479999999}, "viewport": {"northeast": {"lat": 43.145933, "lng": -91.7541712}, "southwest": {"lat": 43.1428687, "lng": -91.76490109999999}}, "location_type": "GEOMETRIC_CENTER"}, "address_components": [{"long_name": "East Main Street", "types": ["route"], "short_name": "E Main St"}, {"long_name": "Ossian", "types": ["locality", "political"], "short_name": "Ossian"}, {"long_name": "Military", "types": ["administrative_area_level_3", "political"], "short_name": "Military"}, {"long_name": "Winneshiek", "types": ["administrative_area_level_2", "political"], "short_name": "Winneshiek"}, {"long_name": "Iowa", "types": ["administrative_area_level_1", "political"], "short_name": "IA"}, {"long_name": "United States", "types": ["country", "political"], "short_name": "US"}, {"long_name": "52161", "types": ["postal_code"], "short_name": "52161"}], "partial_match": true, "formatted_address": "East Main Street, Ossian, IA 52161, USA", "types": ["route"]}, {"geometry": {"bounds": {"northeast": {"lat": 43.1469893, "lng": -91.76490109999999}, "southwest": {"lat": 43.145463, "lng": -91.7684207}}, "location": {"lat": 43.1463163, "lng": -91.7666991}, "viewport": {"northeast": {"lat": 43.1475751302915, "lng": -91.76490109999999}, "southwest": {"lat": 43.1448771697085, "lng": -91.7684207}}, "location_type": "GEOMETRIC_CENTER"}, "address_components": [{"long_name": "West Main Street", "types": ["route"], "short_name": "W Main St"}, {"long_name": "Ossian", "types": ["locality", "political"], "short_name": "Ossian"}, {"long_name": "Military", "types": ["administrative_area_level_3", "political"], "short_name": "Military"}, {"long_name": "Winneshiek", "types": ["administrative_area_level_2", "political"], "short_name": "Winneshiek"}, {"long_name": "Iowa", "types": ["administrative_area_level_1", "political"], "short_name": "IA"}, {"long_name": "United States", "types": ["country", "political"], "short_name": "US"}, {"long_name": "52161", "types": ["postal_code"], "short_name": "52161"}], "partial_match": true, "formatted_address": "West Main Street, Ossian, IA 52161, USA", "types": ["route"]}], "Property Name": "Ossian Opera House", "Listed Date": "18-Jun-79"}