{"City": "Williamsburg", "Address Description": "Apx .5 miles SW of Williamsburg", "County": "Iowa", "Address": "", "geo": [{"geometry": {"bounds": {"northeast": {"lat": 41.6317505, "lng": -92.0829445}, "southwest": {"lat": 41.6294751, "lng": -92.08481599999999}}, "location": {"lat": 41.6306823, "lng": -92.0839874}, "viewport": {"northeast": {"lat": 41.6319617802915, "lng": -92.08253126970848}, "southwest": {"lat": 41.6292638197085, "lng": -92.08522923029149}}, "location_type": "APPROXIMATE"}, "address_components": [{"long_name": "Pilot Grove State Preserve", "types": ["establishment"], "short_name": "Pilot Grove State Preserve"}, {"long_name": "Williamsburg", "types": ["locality", "political"], "short_name": "Williamsburg"}, {"long_name": "Pilot", "types": ["administrative_area_level_3", "political"], "short_name": "Pilot"}, {"long_name": "Iowa", "types": ["administrative_area_level_2", "political"], "short_name": "Iowa"}, {"long_name": "Iowa", "types": ["administrative_area_level_1", "political"], "short_name": "IA"}, {"long_name": "United States", "types": ["country", "political"], "short_name": "US"}, {"long_name": "52361", "types": ["postal_code"], "short_name": "52361"}], "partial_match": true, "formatted_address": "Pilot Grove State Preserve, Williamsburg, IA 52361, USA", "types": ["park", "establishment"]}], "Property Name": "Pilot Grove", "Listed Date": "17-Nov-77"}