{"City": "Des Moines", "Address Description": "", "County": "Polk", "Address": "2300  Grand Ave ", "geo": [{"geometry": {"bounds": {"northeast": {"lat": 41.584414, "lng": -93.64817339999999}, "southwest": {"lat": 41.5821818, "lng": -93.6503147}}, "location": {"lat": 41.5832183, "lng": -93.6485417}, "viewport": {"northeast": {"lat": 41.58464688029149, "lng": -93.64789506970848}, "southwest": {"lat": 41.5819489197085, "lng": -93.65059303029149}}, "location_type": "APPROXIMATE"}, "address_components": [{"long_name": "Terrace Hill", "types": ["establishment"], "short_name": "Terrace Hill"}, {"long_name": "2300", "types": ["street_number"], "short_name": "2300"}, {"long_name": "Grand Avenue", "types": ["route"], "short_name": "Grand Ave"}, {"long_name": "Des Moines", "types": ["locality", "political"], "short_name": "Des Moines"}, {"long_name": "Des Moines", "types": ["administrative_area_level_3", "political"], "short_name": "Des Moines"}, {"long_name": "Polk", "types": ["administrative_area_level_2", "political"], "short_name": "Polk"}, {"long_name": "Iowa", "types": ["administrative_area_level_1", "political"], "short_name": "IA"}, {"long_name": "United States", "types": ["country", "political"], "short_name": "US"}, {"long_name": "50312", "types": ["postal_code"], "short_name": "50312"}], "formatted_address": "Terrace Hill, 2300 Grand Avenue, Des Moines, IA 50312, USA", "types": ["park", "establishment"]}], "Property Name": "Terrace Hill", "Listed Date": "14-Jun-72"}