{"City": "Dubuque", "Address Description": "Main Street, 10th 12th Streets", "County": "Dubuque", "Address": "", "geo": [{"geometry": {"bounds": {"northeast": {"lat": 42.512887, "lng": -90.6715}, "southwest": {"lat": 42.508934, "lng": -90.6737179}}, "location": {"lat": 42.5103567, "lng": -90.67205349999999}, "viewport": {"northeast": {"lat": 42.512887, "lng": -90.67125996970849}, "southwest": {"lat": 42.508934, "lng": -90.67395793029151}}, "location_type": "GEOMETRIC_CENTER"}, "address_components": [{"long_name": "North Main Street", "types": ["route"], "short_name": "N Main St"}, {"long_name": "Dubuque", "types": ["locality", "political"], "short_name": "Dubuque"}, {"long_name": "Dubuque", "types": ["administrative_area_level_2", "political"], "short_name": "Dubuque"}, {"long_name": "Iowa", "types": ["administrative_area_level_1", "political"], "short_name": "IA"}, {"long_name": "United States", "types": ["country", "political"], "short_name": "US"}, {"long_name": "52001", "types": ["postal_code"], "short_name": "52001"}], "partial_match": true, "formatted_address": "North Main Street, Dubuque, IA 52001, USA", "types": ["route"]}, {"geometry": {"bounds": {"northeast": {"lat": 42.4913621, "lng": -90.6604194}, "southwest": {"lat": 42.48802999999999, "lng": -90.662217}}, "location": {"lat": 42.4900701, "lng": -90.6613198}, "viewport": {"northeast": {"lat": 42.4913621, "lng": -90.6599692197085}, "southwest": {"lat": 42.48802999999999, "lng": -90.6626671802915}}, "location_type": "GEOMETRIC_CENTER"}, "address_components": [{"long_name": "South Main Street", "types": ["route"], "short_name": "S Main St"}, {"long_name": "Dubuque", "types": ["locality", "political"], "short_name": "Dubuque"}, {"long_name": "Dubuque", "types": ["administrative_area_level_2", "political"], "short_name": "Dubuque"}, {"long_name": "Iowa", "types": ["administrative_area_level_1", "political"], "short_name": "IA"}, {"long_name": "United States", "types": ["country", "political"], "short_name": "US"}, {"long_name": "52003", "types": ["postal_code"], "short_name": "52003"}], "partial_match": true, "formatted_address": "South Main Street, Dubuque, IA 52003, USA", "types": ["route"]}], "Property Name": "Upper Main Street Historic District", "Listed Date": "11-Apr-05"}