{"City": "Bradford", "Address Description": "Approximately 5 miles South of Bradford", "County": "Franklin", "Address": "", "geo": [{"geometry": {"location": {"lat": 42.6330321, "lng": -93.2449247}, "viewport": {"northeast": {"lat": 42.6412406, "lng": -93.22891729999999}, "southwest": {"lat": 42.62482259999999, "lng": -93.26093209999999}}, "location_type": "APPROXIMATE"}, "address_components": [{"long_name": "Bradford", "types": ["locality", "political"], "short_name": "Bradford"}, {"long_name": "Grant", "types": ["administrative_area_level_3", "political"], "short_name": "Grant"}, {"long_name": "Franklin", "types": ["administrative_area_level_2", "political"], "short_name": "Franklin"}, {"long_name": "Iowa", "types": ["administrative_area_level_1", "political"], "short_name": "IA"}, {"long_name": "United States", "types": ["country", "political"], "short_name": "US"}], "partial_match": true, "formatted_address": "Bradford, IA, USA", "types": ["locality", "political"]}, {"geometry": {"location": {"lat": 42.9660871, "lng": -92.50490549999999}, "viewport": {"northeast": {"lat": 42.96743608029149, "lng": -92.50355651970848}, "southwest": {"lat": 42.96473811970849, "lng": -92.5062544802915}}, "location_type": "APPROXIMATE"}, "address_components": [{"long_name": "Bradford", "types": ["locality", "political"], "short_name": "Bradford"}, {"long_name": "Bradford", "types": ["administrative_area_level_3", "political"], "short_name": "Bradford"}, {"long_name": "Chickasaw", "types": ["administrative_area_level_2", "political"], "short_name": "Chickasaw"}, {"long_name": "Iowa", "types": ["administrative_area_level_1", "political"], "short_name": "IA"}, {"long_name": "United States", "types": ["country", "political"], "short_name": "US"}, {"long_name": "50658", "types": ["postal_code"], "short_name": "50658"}], "partial_match": true, "formatted_address": "Bradford, IA 50658, USA", "types": ["locality", "political"]}], "Property Name": "Wood, Herman, Round Barn", "Listed Date": "30-Jun-86"}