[{"info": "Amana Villages community, historic and modern.", "name": "Amana Colonies", "locality": "Middle Amana", "image": "http://upload.wikimedia.org/wikipedia/commons/9/92/Amana_Colonies.JPG", "img_md5": "928f4713587538a8bcb331c138f17a71", "date_decalred": "01965-06-23", "county": "Iowa", "geo": {"lat": 41.799722, "lng": -91.920833}}, {"info": "An archaeological site, overlapping into South Dakota.", "name": "Blood Run Site", "locality": "Granite, IA", "image": "http://upload.wikimedia.org/wikipedia/commons/1/16/Blood_Run_Site,_Iowa_portion.jpg", "img_md5": "162013ef012145bc50667d47273b266a", "date_decalred": "01970-08-29", "county": "Lyon, IA", "geo": {"lat": 43.47, "lng": -96.58}}, {"info": "An archaeological site.", "name": "Davis Oriole Earthlodge Site (page does not exist)", "locality": "Glenwood", "image": null, "img_md5": null, "date_decalred": "02012-10-16", "county": "Mills", "geo": {"lat": 0, "lng": 0}}, {"info": "", "name": "Grenville M. Dodge House", "locality": "Council Bluffs", "image": "http://upload.wikimedia.org/wikipedia/commons/f/f7/GMDodge-House.jpg", "img_md5": "f7fd6631bcf8dac37c5f7e3a79cc8dcf", "date_decalred": "01961-11-05", "county": "Pottawattamie", "geo": {"lat": 41.25513, "lng": -95.84813}}, {"info": "", "name": "Dubuque County Jail", "locality": "Dubuque", "image": "http://upload.wikimedia.org/wikipedia/commons/7/72/Dbq_jail.jpg", "img_md5": "72a4a00fc2f68f910a57872f8472991c", "date_decalred": "01987-05-28", "county": "Dubuque", "geo": {"lat": 42.50154, "lng": -90.6647}}, {"info": "Home of agriculturist and teacher Seagram A. Knapp and of U.S. Secretary of Agriculture James Wilson, now on Iowa State University campus.", "name": "The Farm House (Knapp-Wilson House)", "locality": "Ames", "image": "http://upload.wikimedia.org/wikipedia/commons/c/c6/The_Farm_House_(Knapp-Wilson_House).jpg", "img_md5": "c644c5255e66b6e41c7ce8aaa7749785", "date_decalred": "01964-07-19", "county": "Story", "geo": {"lat": 42.02807, "lng": -93.64222}}, {"info": "Training site for black officers in World War I.", "name": "Fort Des Moines Provisional Army Officer Training School", "locality": "Des Moines", "image": "http://upload.wikimedia.org/wikipedia/commons/a/ad/1986_HABS_picture", "img_md5": "ad674d573f4adbf5b5bc747144ff0ec9", "date_decalred": "01974-05-30", "county": "Polk", "geo": {"lat": 41.526606, "lng": -93.615233}}, {"info": "One of three surviving steam-powered towboats in the United States, this ship pioneered on upper Mississippi in a certain way, leading to large private industry.", "name": "George M. Verity (towboat)", "locality": "Keokuk", "image": "http://upload.wikimedia.org/wikipedia/commons/b/b8/Verity_Keokuk.JPG", "img_md5": "b878cde14fa71a4fd58e2cf593c7ba8a", "date_decalred": "01989-12-20", "county": "Lee", "geo": {"lat": 40.39129, "lng": -91.3725}}, {"info": "", "name": "William P. Hepburn House", "locality": "Clarinda", "image": "http://upload.wikimedia.org/wikipedia/commons/0/0c/William_B._Hepburn_House_from_S_2.jpg", "img_md5": "0c4e4cd817e64b0573a17b8a1262278a", "date_decalred": "01976-12-08", "county": "Page", "geo": {"lat": 40.741667, "lng": -95.041806}}, {"info": "", "name": "Reverend George B. Hitchcock House", "locality": "Lewis", "image": "http://upload.wikimedia.org/wikipedia/commons/5/54/George_B._Hitchcock_house_from_S.jpg", "img_md5": "544d54083a3dc638889b51fe41cf1cc7", "date_decalred": "02006-02-17", "county": "Cass", "geo": {"lat": 41.30325, "lng": -95.103472}}, {"info": "Two-room cottage birthplace of Herbert Hoover, 31st U.S. President.", "name": "Herbert Hoover National Historic Site", "locality": "West Branch", "image": "http://upload.wikimedia.org/wikipedia/commons/5/50/Herbert_Hoover_birthplace.jpg", "img_md5": "5073ecdf8f1ac2354608f1d67c224b03", "date_decalred": "01965-06-23", "county": "Cedar", "geo": {"lat": 41.668611, "lng": -91.348056}}, {"info": "An archaeological site.", "name": "Indian Village Site (Witrock Area)", "locality": "Sutherland", "image": "http://upload.wikimedia.org/wikipedia/commons/4/4d/Indian_Village_Site_Witrock_Area.jpg", "img_md5": "4d84e8b502fd1d723cd7899c875e6084", "date_decalred": "01964-07-19", "county": "O'Brien", "geo": {"lat": 41.668611, "lng": -91.348056}}, {"info": "A towboat.", "name": "Lone Star (towboat)", "locality": "LeClaire", "image": "http://upload.wikimedia.org/wikipedia/commons/7/7d/Lone_Star.jpg", "img_md5": "7d389670a84fc0e5939c7699c2ef8d42", "date_decalred": "01989-12-20", "county": "Scott", "geo": {"lat": 41.598303, "lng": -90.342553}}, {"info": "Louis Sullivan-designed bank building on a corner in Grinnell.", "name": "Merchants' National Bank", "locality": "Grinnell", "image": "http://upload.wikimedia.org/wikipedia/commons/0/0f/LSGrinnell7.jpg", "img_md5": "0f026878b14b3a00f22f9ba2fad35312", "date_decalred": "01976-01-07", "county": "Poweshiek", "geo": {"lat": 41.74229, "lng": -92.7258}}, {"info": "Historic district including Julien Dubuque Monument and archaeological sites relating to early lead mining in area.", "name": "Julien Dubuque's Mines", "locality": "Dubuque", "image": "http://upload.wikimedia.org/wikipedia/commons/e/ed/Julen_dubuque_grave.jpg", "img_md5": "eda1fd83b4d9deb242744125783fe33e", "date_decalred": "01993-11-04", "county": "Dubuque", "geo": {"lat": 42.468739, "lng": -90.646311}}, {"info": "It is one of the five-building Pentacrest, another NRHP.", "name": "Iowa Old Capitol Building", "locality": "Iowa City", "image": "http://upload.wikimedia.org/wikipedia/commons/8/8d/Old_Capitol_Iowa_City.jpg", "img_md5": "8d688eaadac0cfa671cb00ac176f9e49", "date_decalred": "01976-01-07", "county": "Johnson", "geo": {"lat": 41.65943, "lng": -91.53565}}, {"info": "An archaeological site.", "name": "Phipps Site", "locality": "Cherokee", "image": "http://upload.wikimedia.org/wikipedia/commons/5/5c/Glenwood_earthlodge.jpg", "img_md5": "5c2d5fd074b72fa412ac696f83c39560", "date_decalred": "01964-07-19", "county": "Cherokee", "geo": {"lat": 0, "lng": 0}}, {"info": "Another of just 3 steam-powered towboats surviving.", "name": "Sergeant Floyd (towboat)", "locality": "Sioux City", "image": "http://upload.wikimedia.org/wikipedia/commons/b/b0/Sergeant_Floyd_towboat_5.jpg", "img_md5": "b067023afb59f35928329a434177d13b", "date_decalred": "01989-05-05", "county": "Woodbury", "geo": {"lat": 42.49929, "lng": -96.47254}}, {"info": "Monument to the only member of the 1805 Lewis and Clark expedition who died during the trip. First declared U.S. National Historic Landmark.", "name": "Sergeant Floyd Monument", "locality": "Sioux City", "image": "http://upload.wikimedia.org/wikipedia/commons/7/7e/Sergeant_Floyd_Monument,_sunset.jpg", "img_md5": "7e98a040bb022fee1fbbd1522df465fb", "date_decalred": "01960-06-30", "county": "Woodbury", "geo": {"lat": 42.46068, "lng": -96.37753}}, {"info": "Governor's mansion on hilltop in what is now downtown Des Moines.", "name": "Terrace Hill", "locality": "Des Moines", "image": "http://upload.wikimedia.org/wikipedia/commons/e/e4/Terracehill.jpg", "img_md5": "e40adea246f90aca21c92eb68fa99517", "date_decalred": "02003-07-31", "county": "Polk", "geo": {"lat": 41.583333, "lng": -93.648889}}, {"info": "Mound site.", "name": "Toolesboro Mound Group", "locality": "Toolesboro", "image": "http://upload.wikimedia.org/wikipedia/commons/d/d1/Toolesboro_mounds.jpg", "img_md5": "d11d33a9f42ac5b7fa1d5f88d902c1cf", "date_decalred": "01966-05-23", "county": "Louisa", "geo": {"lat": 41.15, "lng": -91.05}}, {"info": "A Louis Sullivan-designed 4 story building, now apartments over commercial space.", "name": "Van Allen Building", "locality": "Clinton", "image": "http://upload.wikimedia.org/wikipedia/commons/3/30/July_18,_2005_249_1.JPG", "img_md5": "301192f3c7c58f7c2864a3ad046f461b", "date_decalred": "01976-01-07", "county": "Clinton", "geo": {"lat": 41.84121, "lng": -90.18822}}, {"info": "Home of James Weaver.", "name": "James B. Weaver House", "locality": "Bloomfield", "image": "http://upload.wikimedia.org/wikipedia/commons/e/ed/James_B._Weaver_house_from_W_2.jpg", "img_md5": "ed23f012044290e9195e0e8b96e43b1f", "date_decalred": "01975-05-15", "county": "Davis", "geo": {"lat": 40.755333, "lng": -92.412611}}, {"info": "Sidewheel dredge operated by U.S. Corps of Engineers.", "name": "William M. Black (dredge)", "locality": "Dubuque", "image": "http://upload.wikimedia.org/wikipedia/commons/1/1d/William_m_black_dredge.jpg", "img_md5": "1d3cb6ba416c08540fd73460efaf11e5", "date_decalred": "01992-04-27", "county": "Dubuque", "geo": {"lat": 42.49365, "lng": -90.6604}}, {"info": "One of finest Prairie School buildings in the United States.", "name": "Woodbury County Courthouse (Iowa)", "locality": "Sioux City", "image": "http://upload.wikimedia.org/wikipedia/commons/2/23/Woodbury-county-courthouse.jpg", "img_md5": "23f3a0ee344938b8167028190c84f628", "date_decalred": "01996-06-19", "county": "Woodbury", "geo": {"lat": 42.497158, "lng": -96.405525}}]